[
    {
        "name": "Ashburn - Virginia - USA (IAD-F4)",
        "location": {
            "lat": 39.043757,
            "long": -77.487442
        },
        "cloud": "Fortinet",
        "analyticsAndEndpointManagement": "Yes",
        "endpointManagementLocation": "No",
        "accessLocation": "No",
        "availability": "Any subscription"
    },
    {
        "name": "Auckland - New Zealand (AKL-F1)",
        "location": {
            "lat": -36.8485,
            "long": 174.7633
        },
        "cloud": "Fortinet",
        "analyticsAndEndpointManagement": "Yes",
        "endpointManagementLocation": "No",
        "accessLocation": "No",
        "availability": "Any subscription"
    },
    {
        "name": "Bangalore - India (BLR-F1)",
        "location": {
            "lat": 12.971599,
            "long": 77.594566
        },
        "cloud": "Fortinet",
        "analyticsAndEndpointManagement": "Yes",
        "endpointManagementLocation": "No",
        "accessLocation": "No",
        "availability": "Any subscription"
    },
    {
        "name": "Dallas - Texas - USA (DFW-F2)",
        "location": {
            "lat": 32.776664,
            "long": -96.796988
        },
        "cloud": "Fortinet",
        "analyticsAndEndpointManagement": "Yes",
        "endpointManagementLocation": "No",
        "accessLocation": "No",
        "availability": "Any subscription"
    },
    {
        "name": "Dubai - United Arab Emirates (DXB-F1)",
        "location": {
            "lat": 25.276987,
            "long": 55.296249
        },
        "cloud": "Fortinet",
        "analyticsAndEndpointManagement": "Yes",
        "endpointManagementLocation": "No",
        "accessLocation": "No",
        "availability": "Any subscription"
    },
    {
        "name": "Dubai - United Arab Emirates (DXB-F2)",
        "location": {
            "lat": 25.276987,
            "long": 55.296249
        },
        "cloud": "Fortinet",
        "analyticsAndEndpointManagement": "Yes",
        "endpointManagementLocation": "No",
        "accessLocation": "No",
        "availability": "Any subscription"
    },
    {
        "name": "Frankfurt - Germany (FRA-F5)",
        "location": {
            "lat": 50.110924,
            "long": 8.682127
        },
        "cloud": "Fortinet",
        "analyticsAndEndpointManagement": "Yes",
        "endpointManagementLocation": "Yes",
        "accessLocation": "No",
        "availability": "Any subscription"
    },
    {
        "name": "Hong Kong (HKG-F1)",
        "location": {
            "lat": 22.319303,
            "long": 114.169361
        },
        "cloud": "Fortinet",
        "analyticsAndEndpointManagement": "Yes",
        "endpointManagementLocation": "No",
        "accessLocation": "No",
        "availability": "Any subscription"
    },
    {
        "name": "Istanbul - Turkey (IST-F1)",
        "location": {
            "lat": 41.008238,
            "long": 28.978359
        },
        "cloud": "Fortinet",
        "analyticsAndEndpointManagement": "Yes",
        "endpointManagementLocation": "No",
        "accessLocation": "No",
        "availability": "Any subscription"
    },
    {
        "name": "Johannesburg - South Africa (JNB-F1)",
        "location": {
            "lat": -26.204103,
            "long": 28.047305
        },
        "cloud": "Fortinet",
        "analyticsAndEndpointManagement": "Yes",
        "endpointManagementLocation": "No",
        "accessLocation": "No",
        "availability": "Any subscription"
    },
    {
        "name": "Komagome - Japan (TYO-F4)",
        "location": {
            "lat": 35.733333,
            "long": 139.733333
        },
        "cloud": "Fortinet",
        "analyticsAndEndpointManagement": "Yes",
        "endpointManagementLocation": "No",
        "accessLocation": "No",
        "availability": "Any subscription"
    },
    {
        "name": "London - United Kingdom (LON-F4)",
        "location": {
            "lat": 51.507351,
            "long": -0.127758
        },
        "cloud": "Fortinet",
        "analyticsAndEndpointManagement": "Yes",
        "endpointManagementLocation": "Yes",
        "accessLocation": "No",
        "availability": "Any subscription"
    },
    {
        "name": "Madrid - Spain (MAD-F2)",
        "location": {
            "lat": 40.4168,
            "long": -3.7038
        },
        "cloud": "Fortinet",
        "analyticsAndEndpointManagement": "Yes",
        "endpointManagementLocation": "No",
        "accessLocation": "No",
        "availability": "Any subscription"
    },
    {
        "name": "Miami - Florida - USA (MIA-F2)",
        "location": {
            "lat": 25.76168,
            "long": -80.19179
        },
        "cloud": "Fortinet",
        "analyticsAndEndpointManagement": "Yes",
        "endpointManagementLocation": "No",
        "accessLocation": "No",
        "availability": "Any subscription"
    },
    {
        "name": "Ottawa - Canada (YOW-F1)",
        "location": {
            "lat": 45.42153,
            "long": -75.697193
        },
        "cloud": "Fortinet",
        "analyticsAndEndpointManagement": "Yes",
        "endpointManagementLocation": "No",
        "accessLocation": "No",
        "availability": "Any subscription"
    },
    {
        "name": "Paris - France (PAR-F4)",
        "location": {
            "lat": 48.856613,
            "long": 2.352222
        },
        "cloud": "Fortinet",
        "analyticsAndEndpointManagement": "Yes",
        "endpointManagementLocation": "No",
        "accessLocation": "No",
        "availability": "Any subscription"
    },
    {
        "name": "Plano - Texas - USA (DFW-F3)",
        "location": {
            "lat": 33.0198,
            "long": -96.6989
        },
        "cloud": "Fortinet",
        "analyticsAndEndpointManagement": "Yes",
        "endpointManagementLocation": "Yes",
        "accessLocation": "No",
        "availability": "Any subscription"
    },
    {
        "name": "Pune - India (PNQ-F1)",
        "location": {
            "lat": 18.52043,
            "long": 73.856743
        },
        "cloud": "Fortinet",
        "analyticsAndEndpointManagement": "Yes",
        "endpointManagementLocation": "Yes",
        "accessLocation": "No",
        "availability": "Any subscription"
    },
    {
        "name": "San Jose - California - USA (SJC-F4)",
        "location": {
            "lat": 37.338208,
            "long": -121.886329
        },
        "cloud": "Fortinet",
        "analyticsAndEndpointManagement": "Yes",
        "endpointManagementLocation": "No",
        "accessLocation": "No",
        "availability": "Any subscription"
    },
    {
        "name": "Sao Paulo - Brazil (GRU-F1)",
        "location": {
            "lat": -23.5505,
            "long": -46.6333
        },
        "cloud": "Fortinet",
        "analyticsAndEndpointManagement": "Yes",
        "endpointManagementLocation": "No",
        "accessLocation": "No",
        "availability": "Any subscription"
    },
    {
        "name": "Singapore - Republic of Singapore (SIN-F3)",
        "location": {
            "lat": 1.352083,
            "long": 103.819836
        },
        "cloud": "Fortinet",
        "analyticsAndEndpointManagement": "Yes",
        "endpointManagementLocation": "No",
        "accessLocation": "No",
        "availability": "Any subscription"
    },
    {
        "name": "Sydney - Australia (SYD-F2)",
        "location": {
            "lat": -33.86882,
            "long": 151.209296
        },
        "cloud": "Fortinet",
        "analyticsAndEndpointManagement": "Yes",
        "endpointManagementLocation": "Yes",
        "accessLocation": "No",
        "availability": "Any subscription"
    },
    {
        "name": "Tokyo - Japan (TYO-F2)",
        "location": {
            "lat": 35.689487,
            "long": 139.691711
        },
        "cloud": "Fortinet",
        "analyticsAndEndpointManagement": "Yes",
        "endpointManagementLocation": "Yes",
        "accessLocation": "No",
        "availability": "Any subscription"
    },
    {
        "name": "Toronto - Canada (YTO-F2)",
        "location": {
            "lat": 43.65107,
            "long": -79.347015
        },
        "cloud": "Fortinet",
        "analyticsAndEndpointManagement": "Yes",
        "endpointManagementLocation": "No",
        "accessLocation": "No",
        "availability": "Any subscription"
    },
    {
        "name": "Valbonne - France (NCE-F1)",
        "location": {
            "lat": 43.6419,
            "long": 7.0035
        },
        "cloud": "Fortinet",
        "analyticsAndEndpointManagement": "Yes",
        "endpointManagementLocation": "No",
        "accessLocation": "No",
        "availability": "Any subscription"
    },
    {
        "name": "Vancouver - Canada (YVR-F2)",
        "location": {
            "lat": 49.282729,
            "long": -123.120738
        },
        "cloud": "Fortinet",
        "analyticsAndEndpointManagement": "Yes",
        "endpointManagementLocation": "No",
        "accessLocation": "No",
        "availability": "Any subscription"
    },
    {
        "name": "Abu Dhabi - United Arab Emirates (AUH-O1)",
        "location": {
            "lat": 24.453884,
            "long": 54.377344
        },
        "cloud": "Public",
        "analyticsAndEndpointManagement": "No",
        "endpointManagementLocation": "No",
        "accessLocation": "No",
        "availability": "Advanced or Comprehensive Subscription"
    },
    {
        "name": "Amsterdam - Netherlands (AMS-G2)",
        "location": {
            "lat": 52.3676,
            "long": 4.9041
        },
        "cloud": "Public",
        "analyticsAndEndpointManagement": "Yes",
        "endpointManagementLocation": "No",
        "accessLocation": "No",
        "availability": "Advanced or Comprehensive Subscription"
    },
    {
        "name": "Amsterdam - Netherlands (AMS-O1)",
        "location": {
            "lat": 52.3676,
            "long": 4.9041
        },
        "cloud": "Public",
        "analyticsAndEndpointManagement": "No",
        "endpointManagementLocation": "No",
        "accessLocation": "No",
        "availability": "Advanced or Comprehensive Subscription"
    },
    {
        "name": "Ashburn - Virginia - USA (IAD-G2)",
        "location": {
            "lat": 39.0438,
            "long": -77.4874
        },
        "cloud": "Public",
        "analyticsAndEndpointManagement": "Yes",
        "endpointManagementLocation": "No",
        "accessLocation": "No",
        "availability": "Advanced or Comprehensive Subscription"
    },
    {
        "name": "Ashburn - Virginia - USA (IAD-O1)",
        "location": {
            "lat": 39.043757,
            "long": -77.487442
        },
        "cloud": "Public",
        "analyticsAndEndpointManagement": "No",
        "endpointManagementLocation": "No",
        "accessLocation": "No",
        "availability": "Advanced or Comprehensive Subscription"
    },
    {
        "name": "Auckland - New Zealand (AKL-A1)",
        "location": {
            "lat": -36.8485,
            "long": 174.7633
        },
        "cloud": "Public",
        "analyticsAndEndpointManagement": "Yes",
        "endpointManagementLocation": "No",
        "accessLocation": "No",
        "availability": "Advanced or Comprehensive Subscription"
    },
    {
        "name": "Bangkok - Thailand (BKK-A1)",
        "location": {
            "lat": 13.7563,
            "long": 100.5018
        },
        "cloud": "Public",
        "analyticsAndEndpointManagement": "Yes",
        "endpointManagementLocation": "No",
        "accessLocation": "No",
        "availability": "Advanced or Comprehensive Subscription"
    },
    {
        "name": "Bogotá - Colombia (BOG-O1)",
        "location": {
            "lat": 4.711,
            "long": -74.0721
        },
        "cloud": "Public",
        "analyticsAndEndpointManagement": "No",
        "endpointManagementLocation": "No",
        "accessLocation": "No",
        "availability": "Advanced or Comprehensive Subscription"
    },
    {
        "name": "Buenos Aires - Argentina (BUE-A1)",
        "location": {
            "lat": -34.6037,
            "long": -58.3816
        },
        "cloud": "Public",
        "analyticsAndEndpointManagement": "Yes",
        "endpointManagementLocation": "No",
        "accessLocation": "No",
        "availability": "Advanced or Comprehensive Subscription"
    },
    {
        "name": "Chicago - Illinois - USA (ORD-A1)",
        "location": {
            "lat": 41.8781,
            "long": -87.6298
        },
        "cloud": "Public",
        "analyticsAndEndpointManagement": "Yes",
        "endpointManagementLocation": "No",
        "accessLocation": "No",
        "availability": "Advanced or Comprehensive Subscription"
    },
    {
        "name": "Chicago - Illinois - USA (ORD-O1)",
        "location": {
            "lat": 41.8781,
            "long": -87.6298
        },
        "cloud": "Public",
        "analyticsAndEndpointManagement": "No",
        "endpointManagementLocation": "No",
        "accessLocation": "No",
        "availability": "Advanced or Comprehensive Subscription"
    },
    {
        "name": "Columbus - Ohio - USA (CMH-G2)",
        "location": {
            "lat": 39.9612,
            "long": -82.9988
        },
        "cloud": "Public",
        "analyticsAndEndpointManagement": "Yes",
        "endpointManagementLocation": "No",
        "accessLocation": "No",
        "availability": "Advanced or Comprehensive Subscription"
    },
    {
        "name": "Cyberjaya - Malaysia (KUL-A1)",
        "location": {
            "lat": 3.139003,
            "long": 101.686855
        },
        "cloud": "Public",
        "analyticsAndEndpointManagement": "Yes",
        "endpointManagementLocation": "No",
        "accessLocation": "No",
        "availability": "Advanced or Comprehensive Subscription"
    },
    {
        "name": "Dallas - Texas - USA (DFW-G2)",
        "location": {
            "lat": 32.7767,
            "long": -96.797
        },
        "cloud": "Public",
        "analyticsAndEndpointManagement": "Yes",
        "endpointManagementLocation": "No",
        "accessLocation": "No",
        "availability": "Advanced or Comprehensive Subscription"
    },
    {
        "name": "Dammam - Saudi Arabia (DMM-G2)",
        "location": {
            "lat": 26.4207,
            "long": 50.0888
        },
        "cloud": "Public",
        "analyticsAndEndpointManagement": "Yes",
        "endpointManagementLocation": "No",
        "accessLocation": "No",
        "availability": "Advanced or Comprehensive Subscription"
    },
    {
        "name": "Delhi - India (DEL-G2)",
        "location": {
            "lat": 28.7041,
            "long": 77.1025
        },
        "cloud": "Public",
        "analyticsAndEndpointManagement": "Yes",
        "endpointManagementLocation": "No",
        "accessLocation": "No",
        "availability": "Advanced or Comprehensive Subscription"
    },
    {
        "name": "Doha - Qatar (DOH-G2)",
        "location": {
            "lat": 25.276987,
            "long": 51.520008
        },
        "cloud": "Public",
        "analyticsAndEndpointManagement": "Yes",
        "endpointManagementLocation": "No",
        "accessLocation": "No",
        "availability": "Advanced or Comprehensive Subscription"
    },
    {
        "name": "Dubai - United Arab Emirates (DXB-A1)",
        "location": {
            "lat": 25.276987,
            "long": 55.296249
        },
        "cloud": "Public",
        "analyticsAndEndpointManagement": "Yes",
        "endpointManagementLocation": "No",
        "accessLocation": "No",
        "availability": "Advanced or Comprehensive Subscription"
    },
    {
        "name": "Ireland (DUB-A2)",
        "location": {
            "lat": 53.3498,
            "long": -6.2603
        },
        "cloud": "Public",
        "analyticsAndEndpointManagement": "Yes",
        "endpointManagementLocation": "No",
        "accessLocation": "No",
        "availability": "Advanced or Comprehensive Subscription"
    },
    {
        "name": "Frankfurt - Germany (FRA-G2)",
        "location": {
            "lat": 50.110924,
            "long": 8.682127
        },
        "cloud": "Public",
        "analyticsAndEndpointManagement": "Yes",
        "endpointManagementLocation": "No",
        "accessLocation": "No",
        "availability": "Advanced or Comprehensive Subscription"
    },
    {
        "name": "Frankfurt - Germany (FRA-O1)",
        "location": {
            "lat": 50.110924,
            "long": 8.682127
        },
        "cloud": "Public",
        "analyticsAndEndpointManagement": "No",
        "endpointManagementLocation": "No",
        "accessLocation": "No",
        "availability": "Advanced or Comprehensive Subscription"
    },
    {
        "name": "Hamina - Finland (HEL-G2)",
        "location": {
            "lat": 60.5693,
            "long": 27.1979
        },
        "cloud": "Public",
        "analyticsAndEndpointManagement": "Yes",
        "endpointManagementLocation": "No",
        "accessLocation": "No",
        "availability": "Advanced or Comprehensive Subscription"
    },
    {
        "name": "Hong Kong - China (HKG-G2)",
        "location": {
            "lat": 22.3193,
            "long": 114.1694
        },
        "cloud": "Public",
        "analyticsAndEndpointManagement": "Yes",
        "endpointManagementLocation": "No",
        "accessLocation": "No",
        "availability": "Advanced or Comprehensive Subscription"
    },
    {
        "name": "Jakarta - Indonesia (JKT-G2)",
        "location": {
            "lat": -6.2088,
            "long": 106.8456
        },
        "cloud": "Public",
        "analyticsAndEndpointManagement": "Yes",
        "endpointManagementLocation": "No",
        "accessLocation": "No",
        "availability": "Advanced or Comprehensive Subscription"
    },
    {
        "name": "Jeddah - Saudi Arabia (JED-O1)",
        "location": {
            "lat": 21.543333,
            "long": 39.172779
        },
        "cloud": "Public",
        "analyticsAndEndpointManagement": "No",
        "endpointManagementLocation": "No",
        "accessLocation": "No",
        "availability": "Advanced or Comprehensive Subscription"
    },
    {
        "name": "Johannesburg - South Africa (JNB-G2)",
        "location": {
            "lat": -26.2041,
            "long": 28.0473
        },
        "cloud": "Public",
        "analyticsAndEndpointManagement": "Yes",
        "endpointManagementLocation": "No",
        "accessLocation": "No",
        "availability": "Advanced or Comprehensive Subscription"
    },
    {
        "name": "Las Vegas - Nevada - USA (LAS-G2)",
        "location": {
            "lat": 36.1699,
            "long": -115.1398
        },
        "cloud": "Public",
        "analyticsAndEndpointManagement": "Yes",
        "endpointManagementLocation": "No",
        "accessLocation": "No",
        "availability": "Advanced or Comprehensive Subscription"
    },
    {
        "name": "Lima - Peru (LIM-A1)",
        "location": {
            "lat": -12.0464,
            "long": -77.0428
        },
        "cloud": "Public",
        "analyticsAndEndpointManagement": "Yes",
        "endpointManagementLocation": "No",
        "accessLocation": "No",
        "availability": "Advanced or Comprehensive Subscription"
    },
    {
        "name": "London - UK (LON-G2)",
        "location": {
            "lat": 51.5074,
            "long": -0.1278
        },
        "cloud": "Public",
        "analyticsAndEndpointManagement": "Yes",
        "endpointManagementLocation": "No",
        "accessLocation": "No",
        "availability": "Advanced or Comprehensive Subscription"
    },
    {
        "name": "London - UK (LON-O1)",
        "location": {
            "lat": 51.507351,
            "long": -0.127758
        },
        "cloud": "Public",
        "analyticsAndEndpointManagement": "No",
        "endpointManagementLocation": "No",
        "accessLocation": "No",
        "availability": "Advanced or Comprehensive Subscription"
    },
    {
        "name": "Madrid - Spain (MAD-G2)",
        "location": {
            "lat": 40.4168,
            "long": -3.7038
        },
        "cloud": "Public",
        "analyticsAndEndpointManagement": "Yes",
        "endpointManagementLocation": "No",
        "accessLocation": "No",
        "availability": "Advanced or Comprehensive Subscription"
    },
    {
        "name": "Manila - Philippines (MNL-A1)",
        "location": {
            "lat": 14.5995,
            "long": 120.9842
        },
        "cloud": "Public",
        "analyticsAndEndpointManagement": "Yes",
        "endpointManagementLocation": "No",
        "accessLocation": "No",
        "availability": "Advanced or Comprehensive Subscription"
    },
    {
        "name": "Melbourne - Australia (MEL-G2)",
        "location": {
            "lat": -37.8136,
            "long": 144.9631
        },
        "cloud": "Public",
        "analyticsAndEndpointManagement": "Yes",
        "endpointManagementLocation": "No",
        "accessLocation": "No",
        "availability": "Advanced or Comprehensive Subscription"
    },
    {
        "name": "Melbourne - Australia (MEL-O1)",
        "location": {
            "lat": -37.8136,
            "long": 144.9631
        },
        "cloud": "Public",
        "analyticsAndEndpointManagement": "No",
        "endpointManagementLocation": "No",
        "accessLocation": "No",
        "availability": "Advanced or Comprehensive Subscription"
    },
    {
        "name": "Miami - US (MIA-A1)",
        "location": {
            "lat": 25.7617,
            "long": -80.1918
        },
        "cloud": "Public",
        "analyticsAndEndpointManagement": "Yes",
        "endpointManagementLocation": "No",
        "accessLocation": "No",
        "availability": "Advanced or Comprehensive Subscription"
    },
    {
        "name": "Milan - Italy (MIL-G2)",
        "location": {
            "lat": 45.4642,
            "long": 9.19
        },
        "cloud": "Public",
        "analyticsAndEndpointManagement": "Yes",
        "endpointManagementLocation": "No",
        "accessLocation": "No",
        "availability": "Advanced or Comprehensive Subscription"
    },
    {
        "name": "Milan - Italy (MIL-O1)",
        "location": {
            "lat": 45.4642,
            "long": 9.19
        },
        "cloud": "Public",
        "analyticsAndEndpointManagement": "No",
        "endpointManagementLocation": "No",
        "accessLocation": "No",
        "availability": "Advanced or Comprehensive Subscription"
    },
    {
        "name": "Moncks Corner - South Carolina - USA (CHS-G2)",
        "location": {
            "lat": 33.1963,
            "long": -80.186
        },
        "cloud": "Public",
        "analyticsAndEndpointManagement": "Yes",
        "endpointManagementLocation": "No",
        "accessLocation": "No",
        "availability": "Advanced or Comprehensive Subscription"
    },
    {
        "name": "Montreal - Canada (YMQ-G2)",
        "location": {
            "lat": 45.501689,
            "long": -73.567256
        },
        "cloud": "Public",
        "analyticsAndEndpointManagement": "Yes",
        "endpointManagementLocation": "No",
        "accessLocation": "No",
        "availability": "Advanced or Comprehensive Subscription"
    },
    {
        "name": "Montreal - Canada (YMQ-O1)",
        "location": {
            "lat": 45.501689,
            "long": -73.567256
        },
        "cloud": "Public",
        "analyticsAndEndpointManagement": "No",
        "endpointManagementLocation": "No",
        "accessLocation": "No",
        "availability": "Advanced or Comprehensive Subscription"
    },
    {
        "name": "Mumbai - India (BOM-G2)",
        "location": {
            "lat": 19.076,
            "long": 72.8777
        },
        "cloud": "Public",
        "analyticsAndEndpointManagement": "Yes",
        "endpointManagementLocation": "No",
        "accessLocation": "No",
        "availability": "Advanced or Comprehensive Subscription"
    },
    {
        "name": "Mumbai - India (BOM-O1)",
        "location": {
            "lat": 19.07609,
            "long": 72.877426
        },
        "cloud": "Public",
        "analyticsAndEndpointManagement": "No",
        "endpointManagementLocation": "No",
        "accessLocation": "No",
        "availability": "Advanced or Comprehensive Subscription"
    },
    {
        "name": "Muscat - Oman (MCT-A1)",
        "location": {
            "lat": 23.588,
            "long": 58.3829
        },
        "cloud": "Public",
        "analyticsAndEndpointManagement": "Yes",
        "endpointManagementLocation": "No",
        "accessLocation": "No",
        "availability": "Advanced or Comprehensive Subscription"
    },
    {
        "name": "Osaka - Japan (OSA-G2)",
        "location": {
            "lat": 34.6937,
            "long": 135.5023
        },
        "cloud": "Public",
        "analyticsAndEndpointManagement": "Yes",
        "endpointManagementLocation": "No",
        "accessLocation": "No",
        "availability": "Advanced or Comprehensive Subscription"
    },
    {
        "name": "Osaka - Japan (OSA-O1)",
        "location": {
            "lat": 34.6937,
            "long": 135.5023
        },
        "cloud": "Public",
        "analyticsAndEndpointManagement": "No",
        "endpointManagementLocation": "No",
        "accessLocation": "No",
        "availability": "Advanced or Comprehensive Subscription"
    },
    {
        "name": "Paris - France (PAR-G2)",
        "location": {
            "lat": 48.8566,
            "long": 2.3522
        },
        "cloud": "Public",
        "analyticsAndEndpointManagement": "Yes",
        "endpointManagementLocation": "No",
        "accessLocation": "No",
        "availability": "Advanced or Comprehensive Subscription"
    },
    {
        "name": "Paris - France (PAR-O1)",
        "location": {
            "lat": 48.856613,
            "long": 2.352222
        },
        "cloud": "Public",
        "analyticsAndEndpointManagement": "No",
        "endpointManagementLocation": "No",
        "accessLocation": "No",
        "availability": "Advanced or Comprehensive Subscription"
    },
    {
        "name": "Perth - Australia (PER-A1)",
        "location": {
            "lat": -31.950527,
            "long": 115.860457
        },
        "cloud": "Public",
        "analyticsAndEndpointManagement": "Yes",
        "endpointManagementLocation": "No",
        "accessLocation": "No",
        "availability": "Advanced or Comprehensive Subscription"
    },
    {
        "name": "Portland - Oregon - USA (PDX-G2)",
        "location": {
            "lat": 45.5051,
            "long": -122.675
        },
        "cloud": "Public",
        "analyticsAndEndpointManagement": "Yes",
        "endpointManagementLocation": "No",
        "accessLocation": "No",
        "availability": "Advanced or Comprehensive Subscription"
    },
    {
        "name": "Querétaro - Mexico (QRO-G2)",
        "location": {
            "lat": 20.588793,
            "long": -100.389888
        },
        "cloud": "Public",
        "analyticsAndEndpointManagement": "Yes",
        "endpointManagementLocation": "No",
        "accessLocation": "No",
        "availability": "Advanced or Comprehensive Subscription"
    },
    {
        "name": "Santiago - Chile (SCL-G2)",
        "location": {
            "lat": -33.4489,
            "long": -70.6693
        },
        "cloud": "Public",
        "analyticsAndEndpointManagement": "Yes",
        "endpointManagementLocation": "No",
        "accessLocation": "No",
        "availability": "Advanced or Comprehensive Subscription"
    },
    {
        "name": "Santiago - Chile (SCL-O1)",
        "location": {
            "lat": -33.4489,
            "long": -70.6693
        },
        "cloud": "Public",
        "analyticsAndEndpointManagement": "No",
        "endpointManagementLocation": "No",
        "accessLocation": "No",
        "availability": "Advanced or Comprehensive Subscription"
    },
    {
        "name": "São Paulo - Brazil (SAO-G2)",
        "location": {
            "lat": -23.5505,
            "long": -46.6333
        },
        "cloud": "Public",
        "analyticsAndEndpointManagement": "Yes",
        "endpointManagementLocation": "No",
        "accessLocation": "No",
        "availability": "Advanced or Comprehensive Subscription"
    },
    {
        "name": "Seoul - South Korea (SEL-G2)",
        "location": {
            "lat": 37.5665,
            "long": 126.978
        },
        "cloud": "Public",
        "analyticsAndEndpointManagement": "Yes",
        "endpointManagementLocation": "No",
        "accessLocation": "No",
        "availability": "Advanced or Comprehensive Subscription"
    },
    {
        "name": "Singapore - Republic of Singapore (SIN-G2)",
        "location": {
            "lat": 1.352083,
            "long": 103.819836
        },
        "cloud": "Public",
        "analyticsAndEndpointManagement": "Yes",
        "endpointManagementLocation": "No",
        "accessLocation": "No",
        "availability": "Advanced or Comprehensive Subscription"
    },
    {
        "name": "St. Ghislain - Belgium (BRU-G2)",
        "location": {
            "lat": 50.4714,
            "long": 3.8218
        },
        "cloud": "Public",
        "analyticsAndEndpointManagement": "Yes",
        "endpointManagementLocation": "No",
        "accessLocation": "No",
        "availability": "Advanced or Comprehensive Subscription"
    },
    {
        "name": "Stockholm - Sweden (STO-O1)",
        "location": {
            "lat": 59.329323,
            "long": 18.068581
        },
        "cloud": "Public",
        "analyticsAndEndpointManagement": "No",
        "endpointManagementLocation": "No",
        "accessLocation": "No",
        "availability": "Advanced or Comprehensive Subscription"
    },
    {
        "name": "Sydney - Australia (SYD-G2)",
        "location": {
            "lat": -33.86882,
            "long": 151.209296
        },
        "cloud": "Public",
        "analyticsAndEndpointManagement": "Yes",
        "endpointManagementLocation": "No",
        "accessLocation": "No",
        "availability": "Advanced or Comprehensive Subscription"
    },
    {
        "name": "Sydney - Australia (SYD-O1)",
        "location": {
            "lat": -33.86882,
            "long": 151.209296
        },
        "cloud": "Public",
        "analyticsAndEndpointManagement": "No",
        "endpointManagementLocation": "No",
        "accessLocation": "No",
        "availability": "Advanced or Comprehensive Subscription"
    },
    {
        "name": "Taipei - Taiwan (TPE-G2)",
        "location": {
            "lat": 25.033,
            "long": 121.5654
        },
        "cloud": "Public",
        "analyticsAndEndpointManagement": "Yes",
        "endpointManagementLocation": "No",
        "accessLocation": "No",
        "availability": "Advanced or Comprehensive Subscription"
    },
    {
        "name": "Tel Aviv - Israel (TLV-G2)",
        "location": {
            "lat": 32.0853,
            "long": 34.7818
        },
        "cloud": "Public",
        "analyticsAndEndpointManagement": "Yes",
        "endpointManagementLocation": "No",
        "accessLocation": "No",
        "availability": "Advanced or Comprehensive Subscription"
    },
    {
        "name": "Tokyo - Japan (TYO-G2)",
        "location": {
            "lat": 35.689487,
            "long": 139.691711
        },
        "cloud": "Public",
        "analyticsAndEndpointManagement": "Yes",
        "endpointManagementLocation": "No",
        "accessLocation": "No",
        "availability": "Advanced or Comprehensive Subscription"
    },
    {
        "name": "Toronto - Canada (YTO-G2)",
        "location": {
            "lat": 43.65107,
            "long": -79.347015
        },
        "cloud": "Public",
        "analyticsAndEndpointManagement": "Yes",
        "endpointManagementLocation": "No",
        "accessLocation": "No",
        "availability": "Advanced or Comprehensive Subscription"
    },
    {
        "name": "Vinhedo - Brazil (VCP-O1)",
        "location": {
            "lat": -23.029722,
            "long": -46.974444
        },
        "cloud": "Public",
        "analyticsAndEndpointManagement": "No",
        "endpointManagementLocation": "No",
        "accessLocation": "No",
        "availability": "Advanced or Comprehensive Subscription"
    },
    {
        "name": "Warsaw - Poland (WAW-G2)",
        "location": {
            "lat": 52.2297,
            "long": 21.0122
        },
        "cloud": "Public",
        "analyticsAndEndpointManagement": "Yes",
        "endpointManagementLocation": "No",
        "accessLocation": "No",
        "availability": "Advanced or Comprehensive Subscription"
    },
    {
        "name": "Zürich - Switzerland (ZRH-G2)",
        "location": {
            "lat": 47.3769,
            "long": 8.5417
        },
        "cloud": "Public",
        "analyticsAndEndpointManagement": "Yes",
        "endpointManagementLocation": "No",
        "accessLocation": "No",
        "availability": "Advanced or Comprehensive Subscription"
    }
]
